$GPGGA,045105.000,3401.8861,N,11725.0164,W,2,10,0.87,324.3,M,-32.8,M,0000,0000*56
$GPGGA,045106.000,3401.8861,N,11725.0164,W,2,10,0.87,324.3,M,-32.8,M,0000,0000*55
$GPGGA,045106.000,3401.8861,N,11725.0164,W,2,10,0.87,324.3,M,-32.8,M,0000,0000*55
$GPGGA,045107.000,3401.8861,N,11725.0163,W,2,10,0.87,324.3,M,-32.8,M,0000,0000*53
$GPGGA,045106.000,3401.8861,N,11725.0164,W,2,10,0.87,324.3,M,-32.8,M,0000,0000*55
$GPGGA,045107.000,3401.8861,N,11725.0163,W,2,10,0.87,324.3,M,-32.8,M,0000,0000*53
$GPGGA,045108.000,3401.8861,N,11725.0163,W,2,10,0.94,324.3,M,-32.8,M,0000,0000*5E
$GPGGA,045108.000,3401.8861,N,11725.0163,W,2,10,0.94,324.3,M,-32.8,M,0000,0000*5E
$GPGGA,045110.000,3401.8862,N,11725.0164,W,2,10,0.94,324.3,M,-32.8,M,0000,0000*53
$GPGGA,045106.000,3401.8861,N,11725.0164,W,2,10,0.87,324.3,M,-32.8,M,0000,0000*55
$GPGGA,045111.000,3401.8862,N,11725.0163,W,2,10,0.87,324.3,M,-32.8,M,0000,0000*57
$GPGGA,045112.000,3401.8862,N,11725.0162,W,2,10,0.87,324.3,M,-32.8,M,0000,0000*55
$GPGGA,045113.000,3401.8862,N,11725.0161,W,2,10,0.87,324.3,M,-32.8,M,0000,0000*57
$GPGGA,045114.000,3401.8861,N,11725.0160,W,2,10,0.87,324.3,M,-32.8,M,0000,0000*52
$GPGGA,045115.000,3401.8861,N,11725.0159,W,2,10,0.87,324.3,M,-32.8,M,0000,0000*59
$GPGGA,045116.000,3401.8860,N,11725.0158,W,2,10,0.87,324.3,M,-32.8,M,0000,0000*5A
$GPGGA,045107.000,3401.8861,N,11725.0163,W,2,10,0.87,324.3,M,-32.8,M,0000,0000*53
$GPGGA,045117.000,3401.8859,N,11725.0158,W,2,10,0.87,324.3,M,-32.8,M,0000,0000*51
$GPGGA,045118.000,3401.8859,N,11725.0158,W,2,10,0.87,324.3,M,-32.8,M,0000,0000*5E
$GPGGA,045119.000,3401.8859,N,11725.0158,W,2,10,0.87,324.3,M,-32.8,M,0000,0000*5F
$GPGGA,045120.000,3401.8858,N,11725.0158,W,2,10,0.87,324.3,M,-32.8,M,0000,0000*54
$GPGGA,045121.000,3401.8858,N,11725.0157,W,2,10,0.87,324.3,M,-32.8,M,0000,0000*5A
$GPGGA,045108.000,3401.8861,N,11725.0163,W,2,10,0.94,324.3,M,-32.8,M,0000,0000*5E
$GPGGA,045122.000,3401.8858,N,11725.0157,W,2,10,0.87,324.4,M,-32.8,M,0000,0000*5E
$GPGGA,045123.000,3401.8858,N,11725.0157,W,2,10,0.94,324.4,M,-32.8,M,0000,0000*5D
$GPGGA,045124.000,3401.8858,N,11725.0157,W,2,10,0.87,324.4,M,-32.8,M,0000,0000*58
$GPGGA,045125.000,3401.8858,N,11725.0158,W,2,10,0.87,324.4,M,-32.8,M,0000,0000*56
$GPGGA,045126.000,3401.8858,N,11725.0158,W,2,10,0.87,324.4,M,-32.8,M,0000,0000*55
$GPGGA,045128.000,3401.8857,N,11725.0159,W,2,10,0.87,324.4,M,-32.8,M,0000,0000*55
$GPGGA,045129.000,3401.8856,N,11725.0159,W,2,10,0.87,324.4,M,-32.8,M,0000,0000*55
$GPGGA,045130.000,3401.8856,N,11725.0159,W,2,10,0.87,324.4,M,-32.8,M,0000,0000*5D
$GPGGA,045131.000,3401.8856,N,11725.0159,W,2,10,0.87,324.4,M,-32.8,M,0000,0000*5C
$GPGGA,045132.000,3401.8856,N,11725.0160,W,2,10,0.87,324.4,M,-32.8,M,0000,0000*55
$GPGGA,045133.000,3401.8856,N,11725.0160,W,2,10,0.87,324.4,M,-32.8,M,0000,0000*54
$GPGGA,045134.000,3401.8856,N,11725.0160,W,2,10,0.87,324.4,M,-32.8,M,0000,0000*53
$GPGGA,045135.000,3401.8855,N,11725.0159,W,2,10,0.87,324.4,M,-32.8,M,0000,0000*5B
$GPGGA,045136.000,3401.8855,N,11725.0159,W,2,10,0.87,324.4,M,-32.8,M,0000,0000*58
$GPGGA,045137.000,3401.8854,N,11725.0158,W,2,10,0.87,324.4,M,-32.8,M,0000,0000*59
$GPGGA,045138.000,3401.8853,N,11725.0158,W,2,10,0.87,324.4,M,-32.8,M,0000,0000*51
$GPGGA,045139.000,3401.8853,N,11725.0158,W,2,10,0.87,324.4,M,-32.8,M,0000,0000*50
$GPGGA,045140.000,3401.8853,N,11725.0159,W,2,10,0.87,324.4,M,-32.8,M,0000,0000*5F
$GPGGA,045141.000,3401.8853,N,11725.0159,W,2,10,0.87,324.4,M,-32.8,M,0000,0000*5E
$GPGGA,045142.000,3401.8853,N,11725.0159,W,2,10,0.87,324.4,M,-32.8,M,0000,0000*5D
$GPGGA,045110.000,3401.8862,N,11725.0164,W,2,10,0.94,324.3,M,-32.8,M,0000,0000*53
$GPGGA,045143.000,3401.8853,N,11725.0159,W,2,10,0.87,324.4,M,-32.8,M,0000,0000*5C
$GPGGA,045144.000,3401.8852,N,11725.0159,W,2,10,0.87,324.4,M,-32.8,M,0000,0000*5A
$GPGGA,045145.000,3401.8852,N,11725.0159,W,2,10,0.87,324.4,M,-32.8,M,0000,0000*5B
$GPGGA,045146.000,3401.8852,N,11725.0159,W,2,10,0.87,324.4,M,-32.8,M,0000,0000*58
$GPGGA,045147.000,3401.8853,N,11725.0160,W,2,10,0.87,324.4,M,-32.8,M,0000,0000*52
$GPGGA,045106.000,3401.8861,N,11725.0164,W,2,10,0.87,324.3,M,-32.8,M,0000,0000*55
$GPGGA,045111.000,3401.8862,N,11725.0163,W,2,10,0.87,324.3,M,-32.8,M,0000,0000*57
$GPGGA,045148.000,3401.8853,N,11725.0160,W,2,10,0.87,324.4,M,-32.8,M,0000,0000*5D
$GPGGA,045149.000,3401.8854,N,11725.0161,W,2,10,0.95,324.4,M,-32.8,M,0000,0000*59
$GPGGA,045150.000,3401.8854,N,11725.0161,W,2,10,0.87,324.4,M,-32.8,M,0000,0000*52
$GPGGA,045151.000,3401.8854,N,11725.0161,W,2,10,0.87,324.4,M,-32.8,M,0000,0000*53
$GPGGA,045152.000,3401.8855,N,11725.0162,W,2,10,0.87,324.4,M,-32.8,M,0000,0000*52
$GPGGA,045154.000,3401.8855,N,11725.0162,W,2,10,0.87,324.5,M,-32.8,M,0000,0000*55
$GPGGA,045155.000,3401.8854,N,11725.0162,W,2,10,0.87,324.5,M,-32.8,M,0000,0000*55
$GPGGA,045156.000,3401.8855,N,11725.0162,W,2,10,0.87,324.5,M,-32.8,M,0000,0000*57
$GPGGA,045157.000,3401.8855,N,11725.0161,W,2,10,0.87,324.5,M,-32.8,M,0000,0000*55
$GPGGA,045112.000,3401.8862,N,11725.0162,W,2,10,0.87,324.3,M,-32.8,M,0000,0000*55
$GPGGA,045158.000,3401.8855,N,11725.0161,W,2,10,0.87,324.5,M,-32.8,M,0000,0000*5A
$GPGGA,045113.000,3401.8862,N,11725.0161,W,2,10,0.87,324.3,M,-32.8,M,0000,0000*57
$GPGGA,045109.000,3401.8862,N,11725.0164,W,2,10,0.87,324.3,M,-32.8,M,0000,0000*59
$GPGGA,045210.000,3401.8851,N,11725.0158,W,2,10,0.87,324.5,M,-32.8,M,0000,0000*5B
$GPGGA,045211.000,3401.8851,N,11725.0157,W,2,10,0.87,324.5,M,-32.8,M,0000,0000*55
$GPGGA,045212.000,3401.8851,N,11725.0157,W,2,10,0.87,324.5,M,-32.8,M,0000,0000*56
$GPGGA,045213.000,3401.8851,N,11725.0157,W,2,10,0.87,324.5,M,-32.8,M,0000,0000*57
$GPGGA,045214.000,3401.8851,N,11725.0157,W,2,10,0.87,324.5,M,-32.8,M,0000,0000*50
$GPGGA,045117.000,3401.8859,N,11725.0158,W,2,10,0.87,324.3,M,-32.8,M,0000,0000*51
$GPGGA,045118.000,3401.8859,N,11725.0158,W,2,10,0.87,324.3,M,-32.8,M,0000,0000*5E
$GPGGA,045119.000,3401.8859,N,11725.0158,W,2,10,0.87,324.3,M,-32.8,M,0000,0000*5F
$GPGGA,045120.000,3401.8858,N,11725.0158,W,2,10,0.87,324.3,M,-32.8,M,0000,0000*54
$GPGGA,045121.000,3401.8858,N,11725.0157,W,2,10,0.87,324.3,M,-32.8,M,0000,0000*5A
$GPGGA,045216.000,3401.8851,N,11725.0157,W,2,10,0.87,324.5,M,-32.8,M,0000,0000*52
$GPGGA,045217.000,3401.8851,N,11725.0156,W,2,10,0.87,324.5,M,-32.8,M,0000,0000*52
$GPGGA,045218.000,3401.8852,N,11725.0156,W,2,10,0.87,324.5,M,-32.8,M,0000,0000*5E
$GPGGA,045219.000,3401.8852,N,11725.0156,W,2,10,0.87,324.5,M,-32.8,M,0000,0000*5F
$GPGGA,045220.000,3401.8852,N,11725.0156,W,2,10,0.95,324.5,M,-32.8,M,0000,0000*56
$GPGGA,045221.000,3401.8853,N,11725.0156,W,2,10,0.95,324.5,M,-32.8,M,0000,0000*56
$GPGGA,045222.000,3401.8854,N,11725.0156,W,2,10,0.95,324.5,M,-32.8,M,0000,0000*52
$GPGGA,045223.000,3401.8854,N,11725.0156,W,2,10,0.87,324.5,M,-32.8,M,0000,0000*50
$GPGGA,045224.000,3401.8854,N,11725.0156,W,2,10,0.87,324.5,M,-32.8,M,0000,0000*57
$GPGGA,045226.000,3401.8853,N,11725.0156,W,2,10,0.87,324.5,M,-32.8,M,0000,0000*52
$GPGGA,045227.000,3401.8853,N,11725.0157,W,2,10,0.87,324.5,M,-32.8,M,0000,0000*52
$GPGGA,045228.000,3401.8854,N,11725.0157,W,2,10,0.87,324.5,M,-32.8,M,0000,0000*5A
$GPGGA,045229.000,3401.8854,N,11725.0158,W,2,10,0.87,324.5,M,-32.8,M,0000,0000*54
$GPGGA,045108.000,3401.8861,N,11725.0163,W,2,10,0.94,324.3,M,-32.8,M,0000,0000*5E
$GPGGA,045122.000,3401.8858,N,11725.0157,W,2,10,0.87,324.4,M,-32.8,M,0000,0000*5E
$GPGGA,045230.000,3401.8854,N,11725.0159,W,2,10,0.87,324.5,M,-32.8,M,0000,0000*5D
$GPGGA,045231.000,3401.8853,N,11725.0159,W,2,10,0.87,324.5,M,-32.8,M,0000,0000*5B
$GPGGA,045232.000,3401.8853,N,11725.0160,W,2,10,0.87,324.5,M,-32.8,M,0000,0000*52
$GPGGA,045233.000,3401.8853,N,11725.0160,W,2,10,0.87,324.5,M,-32.8,M,0000,0000*53
$GPGGA,045234.000,3401.8852,N,11725.0161,W,2,10,0.87,324.5,M,-32.8,M,0000,0000*54
$GPGGA,045235.000,3401.8852,N,11725.0161,W,2,10,0.87,324.5,M,-32.8,M,0000,0000*55
$GPGGA,045123.000,3401.8858,N,11725.0157,W,2,10,0.94,324.4,M,-32.8,M,0000,0000*5D
$GPGGA,045236.000,3401.8852,N,11725.0161,W,2,10,0.87,324.5,M,-32.8,M,0000,0000*56
$GPGGA,045237.000,3401.8852,N,11725.0161,W,2,10,0.87,324.5,M,-32.8,M,0000,0000*57
$GPGGA,045238.000,3401.8853,N,11725.0161,W,2,10,0.87,324.5,M,-32.8,M,0000,0000*59
$GPGGA,045239.000,3401.8853,N,11725.0161,W,2,10,0.87,324.5,M,-32.8,M,0000,0000*58
$GPGGA,045240.000,3401.8853,N,11725.0160,W,2,10,0.87,324.5,M,-32.8,M,0000,0000*57
$GPGGA,045241.000,3401.8853,N,11725.0160,W,2,10,0.87,324.5,M,-32.8,M,0000,0000*56
$GPGGA,045242.000,3401.8853,N,11725.0160,W,2,10,0.87,324.5,M,-32.8,M,0000,0000*55
$GPGGA,045243.000,3401.8853,N,11725.0160,W,2,10,0.95,324.5,M,-32.8,M,0000,0000*57
$GPGGA,045244.000,3401.8853,N,11725.0160,W,2,10,0.87,324.5,M,-32.8,M,0000,0000*53
$GPGGA,045245.000,3401.8853,N,11725.0161,W,2,10,0.87,324.5,M,-32.8,M,0000,0000*53
$GPGGA,045124.000,3401.8858,N,11725.0157,W,2,10,0.87,324.4,M,-32.8,M,0000,0000*58
$GPGGA,045246.000,3401.8853,N,11725.0161,W,2,10,0.87,324.5,M,-32.8,M,0000,0000*50
$GPGGA,045247.000,3401.8853,N,11725.0161,W,2,10,0.87,324.5,M,-32.8,M,0000,0000*51
$GPGGA,045248.000,3401.8853,N,11725.0160,W,2,10,0.87,324.4,M,-32.8,M,0000,0000*5E
$GPGGA,045249.000,3401.8853,N,11725.0160,W,2,10,0.87,324.4,M,-32.8,M,0000,0000*5F
$GPGGA,045250.000,3401.8853,N,11725.0159,W,2,10,0.87,324.4,M,-32.8,M,0000,0000*5D
$GPGGA,045251.000,3401.8853,N,11725.0159,W,2,10,0.87,324.4,M,-32.8,M,0000,0000*5C
$GPGGA,045252.000,3401.8853,N,11725.0158,W,2,10,0.87,324.4,M,-32.8,M,0000,0000*5E
$GPGGA,045253.000,3401.8853,N,11725.0157,W,2,10,0.87,324.4,M,-32.8,M,0000,0000*50
$GPGGA,045254.000,3401.8853,N,11725.0157,W,2,10,0.87,324.4,M,-32.8,M,0000,0000*57
$GPGGA,045255.000,3401.8853,N,11725.0157,W,2,10,0.95,324.4,M,-32.8,M,0000,0000*55
$GPGGA,045125.000,3401.8858,N,11725.0158,W,2,10,0.87,324.4,M,-32.8,M,0000,0000*56
$GPGGA,045256.000,3401.8853,N,11725.0158,W,2,10,0.87,324.4,M,-32.8,M,0000,0000*5A
$GPGGA,045257.000,3401.8852,N,11725.0158,W,2,10,0.87,324.4,M,-32.8,M,0000,0000*5A
$GPGGA,045258.000,3401.8852,N,11725.0158,W,2,10,0.87,324.4,M,-32.8,M,0000,0000*55
$GPGGA,045259.000,3401.8852,N,11725.0159,W,2,10,0.87,324.4,M,-32.8,M,0000,0000*55
$GPGGA,045300.000,3401.8851,N,11725.0160,W,2,10,0.87,324.4,M,-32.8,M,0000,0000*51
$GPGGA,045301.000,3401.8850,N,11725.0160,W,2,10,0.87,324.4,M,-32.8,M,0000,0000*51
$GPGGA,045302.000,3401.8850,N,11725.0161,W,2,10,0.87,324.4,M,-32.8,M,0000,0000*53
$GPGGA,045303.000,3401.8850,N,11725.0161,W,2,10,0.87,324.4,M,-32.8,M,0000,0000*52
$GPGGA,045304.000,3401.8850,N,11725.0162,W,2,10,0.87,324.4,M,-32.8,M,0000,0000*56
$GPGGA,045305.000,3401.8850,N,11725.0163,W,2,10,0.87,324.4,M,-32.8,M,0000,0000*56
$GPGGA,045306.000,3401.8850,N,11725.0163,W,2,10,0.87,324.4,M,-32.8,M,0000,0000*55
$GPGGA,045307.000,3401.8850,N,11725.0163,W,2,10,0.87,324.4,M,-32.8,M,0000,0000*54
$GPGGA,045308.000,3401.8850,N,11725.0162,W,2,10,0.87,324.4,M,-32.8,M,0000,0000*5A
$GPGGA,045309.000,3401.8851,N,11725.0163,W,2,10,0.87,324.4,M,-32.8,M,0000,0000*5B
$GPGGA,045310.000,3401.8851,N,11725.0163,W,2,10,0.87,324.4,M,-32.8,M,0000,0000*53
$GPGGA,045311.000,3401.8851,N,11725.0163,W,2,10,0.95,324.4,M,-32.8,M,0000,0000*51
$GPGGA,045313.000,3401.8851,N,11725.0163,W,2,10,0.87,324.4,M,-32.8,M,0000,0000*50
$GPGGA,045314.000,3401.8852,N,11725.0163,W,2,10,0.87,324.4,M,-32.8,M,0000,0000*54
$GPGGA,045315.000,3401.8853,N,11725.0162,W,2,10,0.87,324.4,M,-32.8,M,0000,0000*55
$GPGGA,045316.000,3401.8853,N,11725.0161,W,2,10,0.87,324.4,M,-32.8,M,0000,0000*55
$GPGGA,045126.000,3401.8858,N,11725.0158,W,2,10,0.87,324.4,M,-32.8,M,0000,0000*55
$GPGGA,045317.000,3401.8854,N,11725.0161,W,2,10,0.87,324.4,M,-32.8,M,0000,0000*53
$GPGGA,045318.000,3401.8854,N,11725.0161,W,2,10,0.87,324.4,M,-32.8,M,0000,0000*5C
$GPGGA,045319.000,3401.8854,N,11725.0160,W,2,10,0.87,324.4,M,-32.8,M,0000,0000*5C
$GPGGA,045320.000,3401.8855,N,11725.0160,W,2,10,0.87,324.4,M,-32.8,M,0000,0000*57
$GPGGA,045321.000,3401.8855,N,11725.0160,W,2,10,0.95,324.4,M,-32.8,M,0000,0000*55
$GPGGA,045127.000,3401.8858,N,11725.0158,W,2,10,0.87,324.4,M,-32.8,M,0000,0000*54
$GPGGA,045322.000,3401.8855,N,11725.0161,W,2,10,0.87,324.4,M,-32.8,M,0000,0000*54
$GPGGA,045323.000,3401.8855,N,11725.0161,W,2,10,0.87,324.4,M,-32.8,M,0000,0000*55
$GPGGA,045324.000,3401.8854,N,11725.0160,W,2,10,0.87,324.4,M,-32.8,M,0000,0000*52
$GPGGA,045325.000,3401.8853,N,11725.0160,W,2,10,0.87,324.4,M,-32.8,M,0000,0000*54
$GPGGA,045326.000,3401.8853,N,11725.0161,W,2,10,0.87,324.4,M,-32.8,M,0000,0000*56
$GPGGA,045327.000,3401.8853,N,11725.0162,W,2,10,0.87,324.4,M,-32.8,M,0000,0000*54
$GPGGA,045328.000,3401.8850,N,11725.0165,W,2,10,0.87,324.3,M,-32.8,M,0000,0000*58
$GPGGA,045329.000,3401.8848,N,11725.0167,W,2,10,0.87,324.2,M,-32.8,M,0000,0000*53
$GPGGA,045330.000,3401.8846,N,11725.0169,W,2,10,0.87,324.2,M,-32.8,M,0000,0000*5B
$GPGGA,045331.000,3401.8846,N,11725.0171,W,2,10,0.87,324.1,M,-32.8,M,0000,0000*50
$GPGGA,045128.000,3401.8857,N,11725.0159,W,2,10,0.87,324.4,M,-32.8,M,0000,0000*55
$GPGGA,045332.000,3401.8846,N,11725.0172,W,2,10,0.87,324.1,M,-32.8,M,0000,0000*50
$GPGGA,045129.000,3401.8856,N,11725.0159,W,2,10,0.87,324.4,M,-32.8,M,0000,0000*55
$GPGGA,045130.000,3401.8856,N,11725.0159,W,2,10,0.87,324.4,M,-32.8,M,0000,0000*5D
$GPGGA,045334.000,3401.8846,N,11725.0172,W,2,10,0.87,324.1,M,-32.8,M,0000,0000*56
$GPGGA,045335.000,3401.8846,N,11725.0172,W,2,10,0.87,324.1,M,-32.8,M,0000,0000*57
$GPGGA,045336.000,3401.8845,N,11725.0172,W,2,10,0.87,324.1,M,-32.8,M,0000,0000*57
$GPGGA,045337.000,3401.8845,N,11725.0172,W,2,10,0.87,324.1,M,-32.8,M,0000,0000*56
$GPGGA,045338.000,3401.8845,N,11725.0173,W,2,10,0.87,324.1,M,-32.8,M,0000,0000*58
$GPGGA,045339.000,3401.8845,N,11725.0173,W,2,10,0.87,324.1,M,-32.8,M,0000,0000*59
$GPGGA,045340.000,3401.8845,N,11725.0174,W,2,10,0.87,324.1,M,-32.8,M,0000,0000*50
$GPGGA,045341.000,3401.8845,N,11725.0174,W,2,10,0.87,324.1,M,-32.8,M,0000,0000*51
$GPGGA,045342.000,3401.8846,N,11725.0174,W,2,10,0.87,324.1,M,-32.8,M,0000,0000*51
$GPGGA,045343.000,3401.8846,N,11725.0175,W,2,10,0.87,324.1,M,-32.8,M,0000,0000*51
$GPGGA,045344.000,3401.8846,N,11725.0175,W,2,10,0.87,324.1,M,-32.8,M,0000,0000*56
$GPGGA,045345.000,3401.8847,N,11725.0175,W,2,10,0.95,324.0,M,-32.8,M,0000,0000*54
$GPGGA,045346.000,3401.8848,N,11725.0175,W,2,10,0.95,324.0,M,-32.8,M,0000,0000*58
$GPGGA,045347.000,3401.8849,N,11725.0175,W,2,10,0.95,324.0,M,-32.8,M,0000,0000*58
$GPGGA,045348.000,3401.8850,N,11725.0176,W,2,10,0.87,324.0,M,-32.8,M,0000,0000*5F
$GPGGA,045349.000,3401.8851,N,11725.0176,W,2,10,0.87,324.0,M,-32.8,M,0000,0000*5F
$GPGGA,045350.000,3401.8852,N,11725.0177,W,2,10,0.87,324.0,M,-32.8,M,0000,0000*55
$GPGGA,045132.000,3401.8856,N,11725.0160,W,2,10,0.87,324.4,M,-32.8,M,0000,0000*55
$GPGGA,045404.000,3401.8857,N,11725.0176,W,2,10,0.87,324.0,M,-32.8,M,0000,0000*57
$GPGGA,045405.000,3401.8857,N,11725.0175,W,2,10,0.87,324.0,M,-32.8,M,0000,0000*55
$GPGGA,045406.000,3401.8857,N,11725.0175,W,2,10,0.87,324.0,M,-32.8,M,0000,0000*56
$GPGGA,045407.000,3401.8857,N,11725.0174,W,2,10,0.87,324.0,M,-32.8,M,0000,0000*56
$GPGGA,045408.000,3401.8857,N,11725.0174,W,2,09,0.96,324.0,M,-32.8,M,0000,0000*51
$GPGGA,045409.000,3401.8857,N,11725.0174,W,2,09,0.96,324.0,M,-32.8,M,0000,0000*50
$GPGGA,045410.000,3401.8858,N,11725.0173,W,2,09,0.96,324.0,M,-32.8,M,0000,0000*50
$GPGGA,045411.000,3401.8858,N,11725.0174,W,2,09,0.96,324.1,M,-32.8,M,0000,0000*57
$GPGGA,045412.000,3401.8858,N,11725.0174,W,2,09,1.22,324.1,M,-32.8,M,0000,0000*5A
$GPGGA,045413.000,3401.8859,N,11725.0174,W,2,09,0.96,324.1,M,-32.8,M,0000,0000*54
$GPGGA,045133.000,3401.8856,N,11725.0160,W,2,10,0.87,324.4,M,-32.8,M,0000,0000*54
$GPGGA,045414.000,3401.8859,N,11725.0174,W,2,09,0.96,324.1,M,-32.8,M,0000,0000*53
$GPGGA,045415.000,3401.8859,N,11725.0174,W,2,09,0.96,324.1,M,-32.8,M,0000,0000*52
$GPGGA,045416.000,3401.8858,N,11725.0174,W,2,09,0.96,324.1,M,-32.8,M,0000,0000*50
$GPGGA,045417.000,3401.8858,N,11725.0175,W,2,09,0.96,324.1,M,-32.8,M,0000,0000*50
$GPGGA,045418.000,3401.8858,N,11725.0176,W,2,08,1.04,324.1,M,-32.8,M,0000,0000*57
$GPGGA,045419.000,3401.8858,N,11725.0177,W,2,08,1.05,324.1,M,-32.8,M,0000,0000*56
$GPGGA,045420.000,3401.8858,N,11725.0178,W,2,08,1.04,324.1,M,-32.8,M,0000,0000*52
$GPGGA,045421.000,3401.8858,N,11725.0179,W,2,08,1.04,324.1,M,-32.8,M,0000,0000*52
$GPGGA,045422.000,3401.8858,N,11725.0179,W,2,08,1.04,324.1,M,-32.8,M,0000,0000*51
$GPGGA,045423.000,3401.8859,N,11725.0180,W,2,08,1.04,324.1,M,-32.8,M,0000,0000*57
$GPGGA,045134.000,3401.8856,N,11725.0160,W,2,10,0.87,324.4,M,-32.8,M,0000,0000*53
$GPGGA,045424.000,3401.8859,N,11725.0181,W,2,08,1.05,324.1,M,-32.8,M,0000,0000*50
$GPGGA,045425.000,3401.8860,N,11725.0181,W,2,08,1.04,324.1,M,-32.8,M,0000,0000*5A
$GPGGA,045426.000,3401.8860,N,11725.0181,W,2,08,1.04,324.1,M,-32.8,M,0000,0000*59
$GPGGA,045427.000,3401.8860,N,11725.0181,W,2,08,1.04,324.1,M,-32.8,M,0000,0000*58
$GPGGA,045428.000,3401.8860,N,11725.0181,W,2,08,1.04,324.1,M,-32.8,M,0000,0000*57
$GPGGA,045135.000,3401.8855,N,11725.0159,W,2,10,0.87,324.4,M,-32.8,M,0000,0000*5B
$GPGGA,045429.000,3401.8860,N,11725.0181,W,2,07,1.15,324.1,M,-32.8,M,0000,0000*59
$GPGGA,045430.000,3401.8861,N,11725.0181,W,2,07,1.15,324.1,M,-32.8,M,0000,0000*50
$GPGGA,045431.000,3401.8861,N,11725.0182,W,2,07,1.15,324.1,M,-32.8,M,0000,0000*52
$GPGGA,045432.000,3401.8861,N,11725.0183,W,2,08,1.05,324.1,M,-32.8,M,0000,0000*5E
$GPGGA,045433.000,3401.8857,N,11725.0187,W,2,08,1.05,324.2,M,-32.8,M,0000,0000*5D
$GPGGA,045643.000,3401.8838,N,11725.0222,W,2,09,1.02,326.9,M,-32.8,M,0000,0000*52
$GPGGA,045654.000,3401.8837,N,11725.0223,W,2,10,0.96,327.5,M,-32.8,M,0000,0000*53
$GPGGA,045714.000,3401.8836,N,11725.0224,W,2,10,0.96,328.0,M,-32.8,M,0000,0000*5A
$GPGGA,045725.000,3401.8835,N,11725.0224,W,2,10,0.96,328.0,M,-32.8,M,0000,0000*5B
$GPGGA,045735.000,3401.8835,N,11725.0224,W,2,10,0.96,328.0,M,-32.8,M,0000,0000*5A
$GPGGA,045811.000,3401.8834,N,11725.0224,W,2,10,0.97,328.1,M,-32.8,M,0000,0000*52
$GPGGA,045822.000,3401.8833,N,11725.0225,W,2,10,0.97,328.1,M,-32.8,M,0000,0000*54
$GPGGA,045113.000,3401.8862,N,11725.0161,W,2,10,0.87,324.3,M,-32.8,M,0000,0000*57
$GPGGA,045919.000,3401.8816,N,11725.0231,W,2,10,0.97,329.5,M,-32.8,M,0000,0000*5A
$GPGGA,045955.000,3401.8815,N,11725.0231,W,2,10,0.97,329.6,M,-32.8,M,0000,0000*52
$GPGGA,045207.000,3401.8853,N,11725.0160,W,2,10,0.87,324.5,M,-32.8,M,0000,0000*54
$GPGGA,050042.000,3401.8812,N,11725.0220,W,2,10,0.97,329.9,M,-32.8,M,0000,0000*51
$GPGGA,050043.000,3401.8812,N,11725.0220,W,2,10,0.97,329.9,M,-32.8,M,0000,0000*50
$GPGGA,050044.000,3401.8812,N,11725.0220,W,2,10,0.97,329.9,M,-32.8,M,0000,0000*57
$GPGGA,050045.000,3401.8812,N,11725.0220,W,2,10,0.98,329.9,M,-32.8,M,0000,0000*59
$GPGGA,050046.000,3401.8812,N,11725.0220,W,2,10,0.98,329.9,M,-32.8,M,0000,0000*5A
$GPGGA,050047.000,3401.8812,N,11725.0220,W,2,10,0.98,329.9,M,-32.8,M,0000,0000*5B
$GPGGA,050048.000,3401.8812,N,11725.0220,W,2,10,0.98,329.9,M,-32.8,M,0000,0000*54
$GPGGA,050049.000,3401.8812,N,11725.0220,W,2,10,0.98,329.9,M,-32.8,M,0000,0000*55
$GPGGA,050050.000,3401.8812,N,11725.0220,W,2,10,0.98,329.9,M,-32.8,M,0000,0000*5D
$GPGGA,050051.000,3401.8812,N,11725.0220,W,2,10,0.98,329.9,M,-32.8,M,0000,0000*5C
$GPGGA,050052.000,3401.8812,N,11725.0220,W,2,10,0.98,329.8,M,-32.8,M,0000,0000*5E
$GPGGA,050053.000,3401.8812,N,11725.0220,W,2,10,0.97,329.8,M,-32.8,M,0000,0000*50
$GPGGA,050054.000,3401.8812,N,11725.0220,W,2,10,0.97,329.8,M,-32.8,M,0000,0000*57
$GPGGA,050055.000,3401.8812,N,11725.0220,W,2,10,0.97,329.8,M,-32.8,M,0000,0000*56
$GPGGA,050056.000,3401.8812,N,11725.0220,W,2,10,0.98,329.8,M,-32.8,M,0000,0000*5A
$GPGGA,050057.000,3401.8812,N,11725.0220,W,2,10,0.98,329.8,M,-32.8,M,0000,0000*5B
$GPGGA,050058.000,3401.8812,N,11725.0220,W,2,10,0.98,329.8,M,-32.8,M,0000,0000*54
$GPGGA,050059.000,3401.8812,N,11725.0220,W,2,10,0.98,329.8,M,-32.8,M,0000,0000*55
$GPGGA,050100.000,3401.8812,N,11725.0220,W,2,10,0.98,329.8,M,-32.8,M,0000,0000*58
$GPGGA,050113.000,3401.8812,N,11725.0220,W,2,10,0.98,329.8,M,-32.8,M,0000,0000*5A
$GPGGA,050139.000,3401.8812,N,11725.0220,W,2,10,0.98,329.9,M,-32.8,M,0000,0000*53
$GPGGA,050140.000,3401.8812,N,11725.0220,W,2,10,0.98,329.9,M,-32.8,M,0000,0000*5D
$GPGGA,050144.000,3401.8812,N,11725.0220,W,2,10,0.98,329.9,M,-32.8,M,0000,0000*59
$GPGGA,050145.000,3401.8812,N,11725.0220,W,2,10,0.98,329.9,M,-32.8,M,0000,0000*58
$GPGGA,050155.000,3401.8808,N,11725.0215,W,2,10,0.98,330.0,M,-32.8,M,0000,0000*55
$GPGGA,050156.000,3401.8808,N,11725.0215,W,2,10,0.98,330.0,M,-32.8,M,0000,0000*56
$GPGGA,050236.000,3401.8808,N,11725.0215,W,2,10,0.98,330.0,M,-32.8,M,0000,0000*53
$GPGGA,050241.000,3401.8807,N,11725.0211,W,2,09,1.21,329.8,M,-32.8,M,0000,0000*53
